,City Name,Lat,Lng,Max Temp,Humidity,Cloudiness,Wind Speed,Country,Date
0,east london,-33.0153,27.9116,74.08,75,0,22.17,ZA,1642971492
1,wanning,18.8003,110.3967,71.98,92,87,4.12,CN,1642971492
2,barrow,71.2906,-156.7887,-0.38,71,100,5.75,US,1642971493
3,los llanos de aridane,28.6585,-17.9182,64.15,96,75,3.0,ES,1642971493
4,airai,-8.9266,125.4092,60.73,87,100,2.64,TL,1642971493
5,rio verde de mato grosso,-18.9181,-54.8442,91.69,52,95,3.09,BR,1642971493
6,wanlaweyn,2.6185,44.8938,75.99,67,65,16.93,SO,1642971494
7,vredendal,-31.6683,18.5012,73.74,71,61,7.87,ZA,1642971494
8,upernavik,72.7868,-56.1549,-13.83,64,1,5.66,GL,1642971494
9,albany,42.6001,-73.9662,30.27,60,100,2.06,US,1642971384
10,longyearbyen,78.2186,15.6401,11.34,92,64,6.73,SJ,1642971495
11,nemuro,43.3236,145.575,26.13,65,100,5.08,JP,1642971495
12,hilo,19.7297,-155.09,76.39,82,33,1.99,US,1642971495
13,pacific grove,36.6177,-121.9166,69.39,50,0,1.01,US,1642971496
14,puerto ayora,-0.7393,-90.3518,82.36,80,100,10.85,EC,1642971496
15,hualmay,-11.0964,-77.6139,75.56,76,71,10.13,PE,1642971496
16,rikitea,-23.1203,-134.9692,78.48,73,98,16.11,PF,1642971458
17,arraial do cabo,-22.9661,-42.0278,82.36,74,0,18.41,BR,1642971497
18,carauari,-4.8828,-66.8958,80.6,87,100,2.62,BR,1642971497
19,saint-georges,12.0564,-61.7485,82.08,69,20,10.2,GD,1642971497
20,qaanaaq,77.484,-69.3632,-5.01,75,100,4.16,GL,1642971274
21,zaysan,47.4667,84.8667,-5.12,83,74,3.13,KZ,1642971498
22,salme,28.0369,85.0942,41.29,74,60,5.55,NP,1642971498
23,cape town,-33.9258,18.4232,69.28,88,75,14.97,ZA,1642971207
24,biak,-0.9131,122.8766,76.5,81,63,3.31,ID,1642971498
25,klaksvik,62.2266,-6.589,40.12,67,100,26.22,FO,1642971499
26,hithadhoo,-0.6,73.0833,82.02,69,23,16.2,MV,1642971499
27,aklavik,68.2191,-135.0107,2.23,78,75,4.61,CA,1642971499
28,faanui,-16.4833,-151.75,81.32,72,75,17.05,PF,1642971500
29,kihei,20.785,-156.4656,81.66,78,3,4.47,US,1642971500
30,henties bay,-22.116,14.2845,74.71,77,29,1.45,NA,1642971430
31,cooma,-36.2333,149.1333,56.97,100,100,8.05,AU,1642971500
32,barao de melgaco,-16.1944,-55.9675,88.32,61,97,4.83,BR,1642971500
33,lasa,46.6166,10.7002,32.36,62,3,5.75,IT,1642971501
34,guerrero negro,27.9769,-114.0611,66.69,38,64,5.44,MX,1642971328
35,kobelyaky,49.1489,34.1965,21.67,88,100,14.83,UA,1642971501
36,bilma,18.6853,12.9164,60.6,19,68,10.74,NE,1642971502
37,ushuaia,-54.8,-68.3,56.86,54,75,4.61,AR,1642971502
38,punta arenas,-53.15,-70.9167,57.31,58,75,23.02,CL,1642971502
39,barentu,15.1139,37.5928,67.17,55,48,4.45,ER,1642971502
40,namibe,-15.1961,12.1522,75.38,85,91,8.14,AO,1642971503
41,tuktoyaktuk,69.4541,-133.0374,3.2,85,100,9.22,CA,1642971503
42,brownwood,31.7093,-98.9912,62.6,38,100,9.22,US,1642971503
43,yar-sale,66.8333,70.8333,3.22,96,82,10.56,RU,1642971495
44,codrington,-38.2667,141.9667,75.85,40,100,5.35,AU,1642971504
45,vestmannaeyjar,63.4427,-20.2734,36.3,65,100,34.61,IS,1642971504
46,iwaki,37.05,140.8833,41.02,65,100,1.99,JP,1642971504
47,port alfred,-33.5906,26.891,73.98,76,0,25.05,ZA,1642971459
48,broken hill,-31.95,141.4333,76.71,50,100,10.36,AU,1642971505
49,qarqin,37.4185,66.0436,38.93,63,0,9.33,AF,1642971505
50,mataura,-46.1927,168.8643,55.47,57,67,1.52,NZ,1642971505
51,cessnock,-32.8333,151.35,69.1,87,99,1.83,AU,1642971506
52,matveyevka,52.15,56.1833,0.55,94,87,4.07,RU,1642971506
53,vaini,-21.2,-175.2,81.03,71,17,10.22,TO,1642971506
54,san jose,37.3394,-121.895,67.86,45,0,1.99,US,1642971438
55,ishim,56.1128,69.4902,-9.51,100,79,4.12,RU,1642971507
56,geraldton,-28.7667,114.6,72.01,83,0,13.8,AU,1642971507
57,stornoway,58.2093,-6.3865,46.92,92,75,8.99,GB,1642971507
58,coruripe,-10.1256,-36.1756,81.28,72,42,10.04,BR,1642971244
59,drayton valley,53.2168,-114.9854,38.91,64,72,18.01,CA,1642971508
60,carnarvon,-24.8667,113.6333,78.87,73,2,19.57,AU,1642971508
61,nikolskoye,59.7035,30.7861,27.88,95,91,8.34,RU,1642971508
62,khatanga,71.9667,102.5,-21.5,100,100,2.62,RU,1642971208
63,bredasdorp,-34.5322,20.0403,68.29,73,40,9.82,ZA,1642971509
64,torbay,47.6666,-52.7314,28.58,91,100,20.71,CA,1642971509
65,hermanus,-34.4187,19.2345,68.9,95,37,5.86,ZA,1642971509
66,manta,-0.95,-80.7333,80.29,73,63,13.82,EC,1642971400
67,bluff,-46.6,168.3333,55.8,61,87,2.91,NZ,1642971510
68,kavieng,-2.5744,150.7967,82.11,72,42,4.27,PG,1642971510
69,timmins,48.4669,-81.3331,-4.18,65,40,5.75,CA,1642971476
70,busselton,-33.65,115.3333,63.09,80,40,14.94,AU,1642971510
71,nouadhibou,20.931,-17.0347,71.58,60,100,10.36,MR,1642971499
72,sechura,-5.5569,-80.8222,82.53,55,48,18.19,PE,1642971511
73,honningsvag,70.9821,25.9704,40.75,65,20,28.77,NO,1642971511
74,zasechnoye,53.1092,45.0764,23.68,48,100,7.27,RU,1642971511
75,kamenka,51.3223,42.7678,23.25,96,100,12.46,RU,1642971512
76,vostok,46.4856,135.8833,-16.96,99,88,4.41,RU,1642971512
77,lompoc,34.6391,-120.4579,74.7,56,0,1.99,US,1642971512
78,thinadhoo,0.5333,72.9333,81.52,70,37,14.85,MV,1642971513
79,paramonga,-10.6667,-77.8333,74.98,78,61,10.13,PE,1642971513
80,marfino,55.7028,37.3822,1.15,100,100,2.86,RU,1642971513
81,sitka,57.0531,-135.33,40.53,93,100,3.47,US,1642971514
82,whitehorse,60.7161,-135.0538,32.77,74,75,4.61,CA,1642971260
83,torrington,41.8007,-73.1212,34.07,53,97,1.01,US,1642971514
84,saint-philippe,-21.3585,55.7679,80.19,82,34,8.72,RE,1642971514
85,alyangula,-13.8483,136.4192,76.87,100,100,3.44,AU,1642971515
86,dunedin,-45.8742,170.5036,55.8,80,100,3.0,NZ,1642971515
87,saint-pierre,-21.3393,55.4781,80.28,78,40,13.8,RE,1642971515
88,dzilam gonzalez,21.2833,-88.9333,77.86,63,49,10.27,MX,1642971516
89,kaitangata,-46.2817,169.8464,54.93,65,80,2.19,NZ,1642971500
90,thompson,55.7435,-97.8558,-7.44,59,20,10.36,CA,1642971516
91,belyy yar,53.6039,91.3903,-12.14,80,100,0.0,RU,1642971516
92,atuona,-9.8,-139.0333,78.67,77,17,18.63,PF,1642971517
93,dikson,73.5069,80.5464,-10.61,100,100,15.9,RU,1642971517
94,viedma,-40.8135,-62.9967,84.74,22,0,22.73,AR,1642971517
95,lovozero,68.005,35.0117,28.44,98,100,9.62,RU,1642971518
96,iqaluit,63.7506,-68.5145,-7.87,59,100,5.75,CA,1642971518
97,verkhoyansk,67.5447,133.385,-17.82,99,100,1.57,RU,1642971518
98,obo,5.3998,26.4869,80.04,27,78,4.61,CF,1642971519
99,northam,51.0333,-4.2167,43.3,87,10,7.78,GB,1642971519
100,carutapera,-1.195,-46.02,78.01,91,75,6.17,BR,1642971519
101,port lincoln,-34.7333,135.8667,68.34,95,66,6.89,AU,1642971353
102,acapulco,16.8634,-99.8901,84.97,52,26,9.75,MX,1642971518
103,kapaa,22.0752,-159.319,76.48,59,30,1.99,US,1642971520
104,healdsburg,38.6105,-122.8692,68.9,53,0,2.42,US,1642971520
105,port elizabeth,-33.918,25.5701,73.09,88,0,8.05,ZA,1642971520
106,san patricio,28.017,-97.5169,57.92,42,100,4.14,US,1642971521
107,avera,33.194,-82.5271,55.9,35,0,11.34,US,1642971347
108,nalut,30.3333,10.85,45.95,52,9,8.43,LY,1642971521
109,ribeira grande,38.5167,-28.7,59.4,67,20,10.36,PT,1642971521
110,hobart,-42.8794,147.3294,64.02,88,75,5.75,AU,1642971522
111,avarua,-21.2078,-159.775,80.65,89,75,18.41,CK,1642971522
112,kuytun,54.3419,101.5036,5.07,97,100,4.0,RU,1642971522
113,platteville,42.7342,-90.4785,14.95,62,0,9.22,US,1642971403
114,izazi,-7.2,35.7333,69.84,84,100,0.76,TZ,1642971523
115,jamestown,42.097,-79.2353,26.1,65,100,3.0,US,1642971523
116,fort nelson,58.8053,-122.7002,20.79,93,75,4.61,CA,1642971523
117,shihezi,44.3,86.0333,7.65,94,100,4.43,CN,1642971524
118,horqueta,-23.3428,-57.0597,106.9,17,51,7.23,PY,1642971524
119,auki,-8.7676,160.7034,82.92,79,100,6.49,SB,1642971524
120,tiksi,71.6872,128.8694,-6.92,99,100,3.91,RU,1642971525
121,taywarah,33.35,64.4167,0.91,38,0,5.57,AF,1642971525
122,correntina,-13.3433,-44.6367,77.45,75,83,3.87,BR,1642971525
123,lagoa,39.05,-27.9833,59.25,63,28,8.3,PT,1642971525
124,hasaki,35.7333,140.8333,37.8,78,100,11.72,JP,1642971398
125,jawhar,2.7809,45.5005,74.3,71,56,16.15,SO,1642971526
126,svobodnyy,51.4,128.1333,-10.89,97,5,4.72,RU,1642971526
127,kodiak,57.79,-152.4072,38.71,93,100,9.22,US,1642971342
128,grand gaube,-20.0064,57.6608,81.0,85,70,1.99,MU,1642971527
129,oriximina,-1.7656,-55.8661,80.42,88,94,2.42,BR,1642971527
130,gambela,8.25,34.5833,85.1,30,96,0.81,ET,1642971527
131,pueblo nuevo,23.3833,-105.3833,64.99,32,4,9.33,MX,1642971527
132,gamba,-2.65,10.0,76.26,89,5,4.59,GA,1642971528
133,chuy,-33.6971,-53.4616,77.88,86,87,11.14,UY,1642971528
134,imbituba,-28.24,-48.6703,86.83,70,2,16.35,BR,1642971528
135,smithers,54.7804,-127.1743,35.92,80,75,4.61,CA,1642971529
136,kalmunai,7.4167,81.8167,72.05,78,80,3.44,LK,1642971417
137,tanout,14.9709,8.8879,60.8,18,17,12.62,NE,1642971529
138,college,64.8569,-147.8028,8.65,87,87,2.8,US,1642971529
139,port hardy,50.6996,-127.4199,37.58,93,100,4.61,CA,1642971530
140,hofn,64.2539,-15.2082,33.64,53,7,13.02,IS,1642971530
141,sorland,67.667,12.6934,46.47,88,100,54.74,NO,1642971530
142,kitale,1.0157,35.0062,58.28,57,98,2.24,KE,1642971531
143,touros,-5.1989,-35.4608,85.1,73,7,10.27,BR,1642971531
144,mahon,39.8885,4.2658,45.16,81,0,8.05,ES,1642971531
145,guane,22.2025,-84.0875,74.3,70,85,13.18,CU,1642971531
146,velingara,13.15,-14.1167,80.49,12,8,7.0,SN,1642971256
147,farafangana,-22.8167,47.8333,76.8,90,66,13.91,MG,1642971532
148,constitucion,-35.3333,-72.4167,67.1,65,0,20.98,CL,1642971532
149,laguna,38.421,-121.4238,68.43,65,0,3.0,US,1642971532
150,pangody,65.85,74.4859,-9.96,100,99,6.76,RU,1642971533
151,bengkulu,-3.8004,102.2655,74.98,90,70,3.6,ID,1642971533
152,norman wells,65.282,-126.8329,3.24,72,75,14.97,CA,1642971533
153,komsomolskiy,40.4272,71.7189,36.32,80,75,2.3,UZ,1642971534
154,xifeng,42.7372,124.7222,7.43,68,99,5.66,CN,1642971534
155,victoria,22.2855,114.1577,68.95,93,78,1.99,HK,1642971425
156,chanute,37.6792,-95.4572,56.71,53,26,6.06,US,1642971534
157,olinda,-8.0089,-34.8553,83.93,65,0,8.05,BR,1642971535
158,tres passos,-27.4556,-53.9319,96.53,28,65,3.6,BR,1642971535
159,amapa,1.0,-52.0,75.92,97,79,3.24,BR,1642971535
160,mehamn,71.0357,27.8492,41.18,70,0,33.38,NO,1642971536
161,hanmer springs,-42.5167,172.8167,56.37,93,100,2.04,NZ,1642971536
162,xiongyue,40.1774,122.1228,14.27,62,100,10.36,CN,1642971536
163,fairbanks,64.8378,-147.7164,17.31,87,0,0.0,US,1642971306
164,tuatapere,-46.1333,167.6833,55.81,63,71,1.92,NZ,1642971537
165,esperance,-33.8667,121.9,64.24,87,85,15.03,AU,1642971504
166,berlevag,70.8578,29.0864,41.0,70,0,37.98,NO,1642971537
167,ilulissat,69.2167,-51.1,3.49,82,100,5.59,GL,1642971537
168,kavaratti,10.5669,72.642,79.74,62,8,11.59,IN,1642971538
169,talnakh,69.4865,88.3972,-3.62,100,100,5.08,RU,1642971538
170,bay roberts,47.5999,-53.2648,29.34,79,83,7.0,CA,1642971538
171,sao joao da barra,-21.6403,-41.0511,84.29,78,17,11.21,BR,1642971538
172,tucuman,-26.8241,-65.2226,71.6,94,100,10.36,AR,1642971539
173,bafia,4.75,11.2333,73.71,33,7,3.04,CM,1642971539
174,butaritari,3.0707,172.7902,81.73,80,98,18.77,KI,1642971539
175,san borja,-14.8167,-66.85,83.66,70,58,4.63,BO,1642971540
176,macheng,31.1783,115.0319,37.67,94,100,8.16,CN,1642971540
177,pasighat,28.0667,95.3333,57.78,61,90,4.36,IN,1642971540
178,cherskiy,68.75,161.3,-31.81,96,100,4.29,RU,1642971541
179,tasiilaq,65.6145,-37.6368,5.63,51,58,13.04,GL,1642971541
180,borodino,55.9106,94.8983,-14.53,100,100,1.99,RU,1642971541
181,vila franca do campo,37.7167,-25.4333,59.2,69,34,6.55,PT,1642971542
182,churapcha,62.0025,132.4325,-31.58,100,97,1.66,RU,1642971542
183,dingle,10.9995,122.6711,73.89,94,85,6.8,PH,1642971542
184,marienburg,54.0359,19.0266,37.11,82,86,8.14,PL,1642971440
185,tautira,-17.7333,-149.15,86.02,79,71,16.26,PF,1642971543
186,luderitz,-26.6481,15.1594,77.83,60,59,10.74,NA,1642971543
187,mecca,21.4267,39.8261,68.61,72,54,6.44,SA,1642971341
188,namatanai,-3.6667,152.4333,80.47,80,93,2.33,PG,1642971543
189,ixtapa,20.7,-105.2,86.29,39,28,8.93,MX,1642971544
190,bethel,41.3712,-73.414,35.56,54,91,4.0,US,1642971544
191,sao filipe,14.8961,-24.4956,74.97,71,100,12.75,CV,1642971275
192,lavrentiya,65.5833,-171.0,-0.85,99,100,6.51,RU,1642971544
193,posadas,-27.3671,-55.8961,105.78,22,20,5.75,AR,1642971545
194,manavalakurichi,8.1333,77.3,77.09,79,100,11.39,IN,1642971545
195,ola,59.5833,151.2833,-11.18,87,31,9.35,RU,1642971545
196,atikokan,48.7555,-91.6216,-0.85,85,91,6.35,CA,1642971546
197,qaqortoq,60.7167,-46.0333,16.36,77,100,10.47,GL,1642971546
198,kultuk,51.7208,103.6956,8.44,94,99,3.18,RU,1642971546
199,marzuq,14.4,46.4667,62.22,71,38,1.39,YE,1642971547
200,oum hadjer,13.2954,19.6966,71.94,14,11,9.64,TD,1642971547
201,beloha,-25.1667,45.05,74.01,82,95,19.26,MG,1642971547
202,saskylakh,71.9167,114.0833,-14.94,100,95,4.9,RU,1642971547
203,naze,28.3667,129.4833,63.84,87,94,11.36,JP,1642971465
204,semey,50.4111,80.2275,-10.52,100,64,0.96,KZ,1642971548
205,mahebourg,-20.4081,57.7,80.89,83,40,4.61,MU,1642971308
206,westport,41.1415,-73.3579,37.09,51,83,1.99,US,1642971548
207,gao,16.6362,1.637,66.7,15,20,11.7,ML,1642971548
208,leh,34.1667,77.5833,7.92,97,100,1.74,IN,1642971549
209,palmer,42.1584,-72.3287,34.48,45,97,3.0,US,1642971549
210,carlos chagas,-17.7031,-40.7664,78.01,74,56,4.9,BR,1642971549
211,hamilton,39.1834,-84.5333,35.64,74,100,1.99,US,1642971296
212,saquena,-4.6667,-73.5167,87.94,60,68,3.78,PE,1642971550
213,palasa,18.7667,84.4167,72.19,79,66,4.03,IN,1642971550
214,mittweida,50.9833,12.9833,41.05,94,100,3.51,DE,1642971550
215,wasilla,61.5814,-149.4394,41.74,61,100,1.99,US,1642971551
216,bathsheba,13.2167,-59.5167,83.01,61,20,17.27,BB,1642971551
217,san juan,-31.5375,-68.5364,93.61,25,8,15.95,AR,1642971353
218,pisco,-13.7,-76.2167,78.85,65,0,6.91,PE,1642971552
219,hovd,48.0056,91.6419,-3.12,74,5,5.75,MN,1642971552
220,rupert,42.6191,-113.6772,27.28,90,100,2.06,US,1642971552
221,san pedro,14.35,121.0167,78.03,86,75,0.0,PH,1642971552
222,severo-kurilsk,50.6789,156.125,24.93,73,99,11.23,RU,1642971553
223,san quintin,30.4833,-115.95,65.25,39,1,7.85,MX,1642971553
224,beinamar,8.6698,15.3813,74.5,17,12,4.9,TD,1642971553
225,new norfolk,-42.7826,147.0587,63.66,72,95,1.16,AU,1642971538
226,rocha,-34.4833,-54.3333,76.23,84,99,8.41,UY,1642971386
227,ornskoldsvik,63.2909,18.7153,29.35,100,44,2.3,SE,1642971554
228,huarmey,-10.0681,-78.1522,75.9,76,65,11.12,PE,1642971554
229,yellowknife,62.456,-114.3525,-14.58,77,75,5.75,CA,1642971341
230,amahai,-3.3333,128.9167,77.92,82,97,3.65,ID,1642971555
231,mar del plata,-38.0023,-57.5575,82.42,50,0,8.99,AR,1642971551
232,spornoye,50.8448,37.2913,17.62,92,99,16.35,RU,1642971555
233,deming,32.2687,-107.7586,37.58,42,100,6.71,US,1642971304
234,mao,39.8885,4.2658,45.16,81,0,8.05,ES,1642971555
235,concarneau,47.875,-3.9225,38.17,89,0,9.73,FR,1642971556
236,guider,9.9342,13.9486,74.79,17,0,6.22,CM,1642971556
237,pangnirtung,66.1451,-65.7125,-2.2,60,75,4.61,CA,1642971556
238,sayyan,15.1718,44.3244,53.42,56,3,1.72,YE,1642971556
239,nanortalik,60.1432,-45.2371,22.12,78,100,6.24,GL,1642971557
240,veraval,20.9,70.3667,61.2,49,4,11.27,IN,1642971391
241,nyurba,63.2842,118.3319,-7.11,98,92,6.2,RU,1642971557
242,progreso,21.2833,-89.6667,82.11,72,39,14.61,MX,1642971557
243,saldanha,-33.0117,17.9442,68.05,97,57,19.55,ZA,1642971558
244,takoradi,4.8845,-1.7554,79.2,85,5,6.82,GH,1642971558
245,castro,-24.7911,-50.0119,83.61,58,1,1.92,BR,1642971558
246,sajanan,37.0573,9.2426,45.52,80,0,7.49,TN,1642971559
247,alofi,-19.0595,-169.9187,82.29,78,20,8.05,NU,1642971559
248,neryungri,56.6709,124.6491,-15.3,100,82,2.37,RU,1642971559
249,hami,42.8,93.45,22.73,60,0,6.02,CN,1642971560
250,flinders,-34.5833,150.8552,69.06,90,98,3.0,AU,1642971560
251,kaeo,-35.1,173.7833,68.32,94,100,11.36,NZ,1642971560
252,ejido,8.5514,-71.2375,74.37,79,72,4.94,VE,1642971560
253,coihaique,-45.5752,-72.0662,58.95,55,75,9.22,CL,1642971561
254,high level,58.5169,-117.136,5.11,92,100,6.91,CA,1642971470
255,san-pedro,4.7485,-6.6363,78.49,85,0,6.93,CI,1642971561
256,maragogi,-9.0122,-35.2225,80.73,69,39,12.86,BR,1642971561
257,provideniya,64.3833,-173.3,10.51,85,75,8.95,RU,1642971562
258,sola,-13.8833,167.55,83.84,76,92,14.5,VU,1642971562
259,tommot,58.9564,126.2925,-5.64,100,100,2.8,RU,1642971562
260,georgetown,5.4112,100.3354,78.73,93,20,5.01,MY,1642971563
261,san cristobal,7.7669,-72.225,77.18,49,85,3.13,VE,1642971563
262,phalodi,27.1333,72.3667,55.08,50,0,2.84,IN,1642971563
263,makakilo city,21.3469,-158.0858,78.28,66,9,9.93,US,1642971564
264,broome,42.2506,-75.833,30.02,73,100,4.0,US,1642971564
265,tabas,33.5959,56.9244,40.6,27,0,1.14,IR,1642971496
266,dwarka,22.2394,68.9678,63.61,39,6,6.82,IN,1642971564
267,la palma,33.8464,-118.0467,77.94,24,0,4.0,US,1642971564
268,weinan,34.5036,109.5089,31.69,98,100,2.57,CN,1642971565
269,naranjal,-2.6667,-79.6167,85.8,71,72,5.1,EC,1642971565
270,lomovka,53.9194,58.3672,-4.88,97,99,1.32,RU,1642971565
271,lebu,-37.6167,-73.65,64.29,74,1,9.73,CL,1642971470
272,arman,59.7,150.1667,-10.14,84,31,8.5,RU,1642971566
273,rio grande,-32.035,-52.0986,87.91,84,99,14.05,BR,1642971566
274,plettenberg bay,-34.0527,23.3716,75.96,42,0,7.36,ZA,1642971566
275,port blair,11.6667,92.75,71.64,94,40,0.0,IN,1642971501
276,herrin,37.8031,-89.0276,40.91,58,20,17.27,US,1642971567
277,roebourne,-20.7833,117.1333,82.18,73,99,10.31,AU,1642971567
278,khandyga,62.6667,135.6,-41.48,100,53,1.61,RU,1642971567
279,qasigiannguit,68.8193,-51.1922,6.91,83,100,5.39,GL,1642971567
280,zeya,53.75,127.2667,-7.96,96,5,2.39,RU,1642971568
281,rutigliano,41.0111,17.0055,49.59,59,100,17.92,IT,1642971568
282,sosua,19.7667,-70.5167,87.78,74,20,14.97,DO,1642971568
283,pemangkat,1.1667,108.9667,78.31,83,100,4.5,ID,1642971569
284,bambous virieux,-20.3428,57.7575,80.85,83,40,4.61,MU,1642971284
285,flin flon,54.7682,-101.865,-0.56,65,75,8.05,CA,1642971569
286,tura,25.5198,90.2201,55.2,75,37,4.52,IN,1642971533
287,saint george,37.1041,-113.5841,57.67,33,2,1.01,US,1642971569
288,zlotoryja,51.1264,15.9198,37.96,100,100,2.86,PL,1642971537
289,iracoubo,5.4802,-53.2011,77.11,87,21,9.73,GF,1642971570
290,husavik,66.0449,-17.3389,28.31,66,51,22.24,IS,1642971570
291,wodonga,-36.1167,146.8833,69.96,97,100,4.61,AU,1642971570
292,johnstown,40.3267,-78.922,33.93,89,100,10.36,US,1642971372
293,cefalu,38.0386,14.0229,48.54,66,62,1.99,IT,1642971571
294,griffith,41.5284,-87.4237,24.1,68,100,1.99,US,1642971571
295,teluk intan,4.0259,101.0213,77.38,96,100,2.19,MY,1642971571
296,lhokseumawe,5.1801,97.1507,76.12,87,72,2.46,ID,1642971571
297,lakatoro,-16.0999,167.4164,84.25,74,87,4.92,VU,1642971572
298,lulea,65.5842,22.1547,37.47,87,0,14.97,SE,1642971572
299,san buenaventura,27.0833,-101.5333,52.18,48,85,8.55,MX,1642971572
300,lorengau,-2.0226,147.2712,82.47,79,89,11.61,PG,1642971573
301,murgab,37.4966,61.9714,35.47,75,0,9.22,TM,1642971573
302,gizo,-8.103,156.8419,83.16,78,87,8.37,SB,1642971573
303,vakhrushev,48.9833,142.9667,3.27,80,65,4.65,RU,1642971573
304,doha,25.2867,51.5333,58.98,51,0,2.3,QA,1642971421
305,leningradskiy,69.3833,178.4167,-16.35,94,100,6.17,RU,1642971500
306,hillsboro,45.5229,-122.9898,54.95,70,24,1.01,US,1642971495
307,waddan,29.1614,16.139,49.89,60,3,4.36,LY,1642971574
308,omsukchan,62.5333,155.8,-27.53,98,100,4.83,RU,1642971574
309,lyuban,52.7985,28.0048,10.4,97,60,4.72,BY,1642971575
310,pevek,69.7008,170.3133,-12.68,96,100,18.52,RU,1642971575
311,esso,55.9333,158.7,-8.28,98,64,5.7,RU,1642971575
312,bachaquero,9.9694,-71.1494,85.66,58,85,5.44,VE,1642971576
313,bagdarin,54.4333,113.6,-10.05,97,100,2.89,RU,1642971576
314,kloulklubed,7.0419,134.2556,83.03,79,35,18.3,PW,1642971576
315,creston,41.0586,-94.3614,20.05,86,100,4.61,US,1642971576
316,moranbah,-22.0016,148.0466,73.26,71,95,9.71,AU,1642971577
317,jasper,37.2001,-94.3502,52.54,46,20,3.0,US,1642971577
318,balingasay,16.3573,119.8564,79.11,80,6,13.38,PH,1642971577
319,meulaboh,4.1363,96.1285,75.07,90,100,3.91,ID,1642971578
320,espanola,35.9911,-106.0806,55.08,29,0,0.85,US,1642971548
321,inirida,3.8653,-67.9239,83.16,77,72,0.87,CO,1642971578
322,asau,46.4333,26.4,22.95,91,95,8.48,RO,1642971578
323,juquitiba,-23.9317,-47.0683,80.37,83,31,4.79,BR,1642971579
324,anito,12.4497,125.2886,76.39,93,100,7.56,PH,1642971579
325,port hedland,-20.3167,118.5667,82.45,94,70,5.75,AU,1642971579
326,coquimbo,-29.9533,-71.3436,67.73,68,0,17.27,CL,1642971579
327,egvekinot,66.3167,-179.1667,-16.29,97,100,4.72,RU,1642971580
328,salmas,38.1973,44.7653,9.59,72,4,5.7,IR,1642971580
329,russkaya polyana,49.417,31.9201,21.0,91,100,10.71,UA,1642971580
330,bonthe,7.5264,-12.505,78.89,75,2,7.74,SL,1642971581
331,hobyo,5.3505,48.5268,77.5,67,100,21.12,SO,1642971581
332,chapais,49.7834,-74.8492,-7.82,90,100,6.87,CA,1642971581
333,cidreira,-30.1811,-50.2056,81.03,78,43,13.27,BR,1642971581
334,bac lieu,9.285,105.7244,74.08,89,0,3.18,VN,1642971582
335,olafsvik,64.8945,-23.7142,27.64,60,100,22.73,IS,1642971582
336,gobabis,-22.45,18.9667,68.58,42,23,13.85,NA,1642971582
337,ballina,-28.8667,153.5667,67.96,89,100,8.05,AU,1642971583
338,shatsk,54.0258,41.7119,6.91,99,97,7.29,RU,1642971583
339,ponta do sol,32.6667,-17.1,65.71,79,100,5.64,PT,1642971583
340,chilliwack,49.1747,-121.9443,42.84,100,100,1.14,CA,1642971338
341,idukki,9.85,76.9667,64.58,94,48,1.7,IN,1642971584
342,lufilufi,-13.8745,-171.5986,83.98,73,100,6.67,WS,1642971584
343,kruisfontein,-34.0033,24.7314,70.88,59,0,2.93,ZA,1642971584
344,uruguaiana,-29.7547,-57.0883,93.13,49,75,18.41,BR,1642971585
345,maumere,-8.6199,122.2111,79.75,84,100,7.72,ID,1642971585
346,munai,7.9758,124.0636,69.35,97,100,3.51,PH,1642971585
347,lahijan,37.2061,50.0029,40.78,49,0,5.01,IR,1642971585
348,subtanjalla,-14.0189,-75.7581,73.94,46,14,13.0,PE,1642971586
349,samarai,-10.6167,150.6667,82.44,78,72,10.8,PG,1642971586
350,santa luzia,-19.7697,-43.8514,87.08,40,20,5.75,BR,1642971586
351,saint-augustin,51.226,-58.6502,8.64,98,98,2.75,CA,1642971587
352,el cobre,20.0489,-75.9469,80.55,63,6,4.99,CU,1642971587
353,pitimbu,-7.4706,-34.8086,82.99,67,37,8.23,BR,1642971587
354,ancud,-41.8697,-73.8203,66.42,75,73,10.8,CL,1642971588
355,terrak,65.087,12.3715,46.42,79,100,27.45,NO,1642971588
356,harrison,30.4091,-89.0436,56.3,29,0,5.79,US,1642971260
357,andenes,69.3143,16.1194,44.58,81,100,37.98,NO,1642971588
358,port macquarie,-31.4333,152.9167,70.9,85,89,7.52,AU,1642971587
359,aksarka,66.5606,67.7975,1.11,97,65,10.65,RU,1642971589
360,biggar,55.6167,-3.5167,42.3,83,100,11.45,GB,1642971589
361,rantepao,-2.9701,119.8978,63.75,84,63,3.53,ID,1642971589
362,eregli,37.5133,34.0467,15.17,91,98,6.64,TR,1642971589
363,bandarbeyla,9.4942,50.8122,74.8,70,1,17.2,SO,1642971590
364,videira,-27.0083,-51.1517,84.07,53,56,1.48,BR,1642971590
365,sibolga,1.7427,98.7792,75.16,88,80,3.2,ID,1642971590
366,muros,42.7762,-9.0603,50.85,90,0,3.83,ES,1642971591
367,ambilobe,-13.2,49.05,73.98,96,100,9.17,MG,1642971591
368,luwuk,-0.9516,122.7875,77.56,78,67,3.42,ID,1642971591
369,ponnampet,12.15,75.9333,56.35,91,1,1.74,IN,1642971591
370,luangwa,-15.6167,30.4167,70.3,84,59,0.63,ZM,1642971592
371,najran,17.4924,44.1277,57.85,42,0,2.57,SA,1642971592
372,impfondo,1.6381,18.0667,76.87,44,96,0.85,CG,1642971592
373,manyana,-23.4,21.7167,63.09,69,86,6.08,BW,1642971593
374,ust-kalmanka,52.1207,83.305,-9.09,100,44,3.96,RU,1642971593
375,poso,-1.3959,120.7524,77.9,81,100,3.47,ID,1642971593
376,bam,29.106,58.357,43.65,33,0,3.09,IR,1642971593
377,narsaq,60.9167,-46.05,13.95,72,100,10.74,GL,1642971594
378,mumford,5.2618,-0.759,79.05,84,6,7.38,GH,1642971594
379,ust-tsilma,65.441,52.1498,10.04,92,95,8.63,RU,1642971594
380,barcelos,41.5388,-8.6151,49.84,72,0,4.18,PT,1642971465
381,poum,-20.2333,164.0167,80.67,68,96,11.74,NC,1642971503
382,souillac,-20.5167,57.5167,80.98,83,40,4.61,MU,1642971595
383,asosa,10.0667,34.5333,66.29,36,19,3.38,ET,1642971595
384,ler,8.3018,30.1418,79.56,26,32,5.7,SS,1642971595
385,inuvik,68.3499,-133.7218,2.41,82,75,2.3,CA,1642971596
386,sakakah,29.9697,40.2064,44.17,47,0,1.1,SA,1642971596
387,sabha,27.0377,14.4283,50.02,44,0,7.61,LY,1642971596
388,bandar-e lengeh,26.5579,54.8807,62.56,48,0,2.39,IR,1642971597
389,fortuna,40.5982,-124.1573,69.85,45,0,3.4,US,1642971597
390,axim,4.8699,-2.2405,78.85,83,5,6.91,GH,1642971597
391,the valley,18.217,-63.0578,84.06,69,20,9.22,AI,1642971597
392,vao,-22.6667,167.4833,77.36,66,11,8.28,NC,1642971598
393,kirakira,-10.4544,161.9205,83.14,80,75,5.95,SB,1642971598
394,la ronge,55.1001,-105.2842,1.65,71,75,6.91,CA,1642971419
395,musenita,47.9667,26.0,22.06,77,100,10.71,RO,1642971598
396,coari,-4.085,-63.1414,80.92,90,54,1.57,BR,1642971599
397,rapid valley,44.0625,-103.1463,56.77,27,81,1.99,US,1642971599
398,emba,48.8264,58.1442,2.68,84,3,8.37,KZ,1642971599
399,san carlos del zulia,9.0,-71.9135,88.81,52,80,12.26,VE,1642971599
400,shawnee,39.05,-95.7669,49.44,52,22,1.99,US,1642971600
401,jalu,29.0331,21.5482,51.6,61,11,8.08,LY,1642971600
402,kiunga,-6.1219,141.2906,73.31,95,100,1.41,PG,1642971601
403,santa isabel do rio negro,-0.4139,-65.0192,84.27,73,34,3.71,BR,1642971602
404,matara,5.9485,80.5353,73.04,88,100,2.86,LK,1642971353
405,ternate,0.8,127.4,79.83,83,98,5.86,ID,1642971603
406,muravlenko,63.7898,74.523,-10.16,100,88,4.29,RU,1642971603
407,mangrol,21.1167,70.1167,60.6,53,12,9.95,IN,1642971604
408,labuhan,-6.8844,112.2051,77.65,88,89,10.63,ID,1642971607
409,mandalgovi,45.7625,106.2708,5.61,83,100,8.19,MN,1642971608
410,chauk,20.8833,94.8167,64.83,58,2,4.74,MM,1642971610
411,opuwo,-18.0607,13.84,76.93,35,91,5.73,NA,1642971610
412,sinegorskiy,48.0139,40.8447,28.63,96,100,14.94,RU,1642971611
413,hambantota,6.1241,81.1185,73.53,82,100,4.0,LK,1642971612
414,deputatskiy,69.3,139.9,-22.5,98,99,5.57,RU,1642971613
415,sur,22.5667,59.5289,67.57,58,0,12.41,OM,1642971573
416,boa vista,2.8197,-60.6733,91.38,43,40,10.36,BR,1642971614
417,bozeman,45.6796,-111.0386,44.2,51,41,1.99,US,1642971454
418,bara,10.3744,10.7288,71.29,23,1,8.93,NG,1642971615
419,dodola,6.9833,39.1833,51.28,45,93,2.68,ET,1642971615
420,katherine,-14.4667,132.2667,79.12,94,99,9.22,AU,1642971346
421,havoysund,70.9963,24.6622,43.68,78,100,39.06,NO,1642971616
422,katsuura,35.1333,140.3,45.1,83,100,13.27,JP,1642971617
423,tongliao,43.6125,122.2653,-0.72,97,100,3.49,CN,1642971617
424,tigil,57.8,158.6667,-2.94,99,100,3.06,RU,1642971618
425,ulladulla,-35.35,150.4667,68.88,82,95,3.18,AU,1642971619
426,lluta,-16.0147,-72.0142,52.14,84,96,9.73,PE,1642971602
427,clyde river,70.4692,-68.5914,-13.54,97,100,10.87,CA,1642971619
428,anadyr,64.75,177.4833,-19.7,75,40,8.01,RU,1642971620
429,ekhabi,53.5102,142.9671,-4.92,93,30,12.24,RU,1642971620
430,cabo san lucas,22.8909,-109.9124,75.61,66,93,3.0,MX,1642971449
431,kaspiyskiy,45.3929,47.3707,37.06,77,100,25.19,RU,1642971621
432,marquette,46.5333,-87.6335,13.33,55,100,7.83,US,1642971621
433,salalah,17.0151,54.0924,64.08,28,0,13.58,OM,1642971622
434,florianopolis,-27.6146,-48.5012,84.56,78,1,5.01,BR,1642971622
435,vondrozo,-22.8167,47.2833,68.97,99,97,5.66,MG,1642971622
436,ayan,56.45,138.1667,5.9,63,87,15.05,RU,1642971623
437,bubaque,11.2833,-15.8333,79.21,75,17,13.4,GW,1642971623
438,ossora,59.2353,163.0719,-18.22,82,2,4.03,RU,1642971623
439,coahuayana,18.7333,-103.6833,86.67,40,89,7.16,MX,1642971424
440,tolosa,43.6043,1.4437,47.21,81,20,8.05,FR,1642971624
441,caravelas,-17.7125,-39.2481,78.13,75,40,5.59,BR,1642971577
442,comodoro rivadavia,-45.8667,-67.5,71.8,30,58,28.16,AR,1642971625
443,nanakuli,21.3906,-158.1547,79.7,67,8,6.78,US,1642971625
444,rengo,-34.4167,-70.8667,89.19,14,0,7.67,CL,1642971625
445,machico,32.7,-16.7667,65.71,84,40,6.91,PT,1642971626
446,nome,64.5011,-165.4064,-0.83,85,100,4.76,US,1642971626
447,turukhansk,65.8167,87.9833,0.61,98,100,3.02,RU,1642971626
448,aksha,50.2814,113.2867,0.0,99,100,1.81,RU,1642971627
449,mareeba,-17.0,145.4333,72.45,96,100,2.8,AU,1642971627
450,adrar,20.5022,-10.0711,68.97,18,3,10.89,MR,1642971498
451,itoman,26.1247,127.6694,70.57,96,75,9.22,JP,1642971627
452,buala,-8.145,159.5921,83.14,78,66,5.55,SB,1642971628
453,kiama,-34.6833,150.8667,69.26,90,99,3.0,AU,1642971628
454,gulfport,30.3674,-89.0928,56.28,29,0,1.99,US,1642971412
455,synya,65.3718,58.0387,10.11,92,90,11.01,RU,1642971629
456,porgera,-5.4667,143.2,41.58,98,100,1.57,PG,1642971629
457,mitu,1.1983,-70.1733,81.09,86,76,1.97,CO,1642971629
458,isiro,2.7739,27.616,75.29,47,100,2.28,CD,1642971630
459,botshabelo,-29.2702,26.7052,65.91,43,1,3.36,ZA,1642971630
460,waipawa,-41.4122,175.5153,65.93,84,100,8.03,NZ,1642971630
461,viljoenskroon,-27.2084,26.9485,62.56,48,0,4.07,ZA,1642971631
462,pudozh,61.8099,36.5345,16.95,94,100,9.95,RU,1642971631
463,launceston,-41.45,147.1667,66.61,67,100,1.99,AU,1642971631
464,carballo,43.213,-8.691,48.67,92,1,3.33,ES,1642971632
465,killybegs,54.6333,-8.45,45.45,79,100,13.22,IE,1642971632
466,snezhnogorsk,69.1933,33.2531,35.38,88,100,26.35,RU,1642971632
467,iberia,29.9502,-91.7507,57.97,36,31,5.3,US,1642971633
468,heyang,26.1011,107.473,40.37,94,100,3.76,CN,1642971633
469,lazarev,52.225,141.5131,-10.37,90,9,4.85,RU,1642971633
470,lishui,28.4604,119.9103,51.35,97,100,2.95,CN,1642971634
471,palana,59.1167,159.9667,-11.61,95,73,4.94,RU,1642971634
472,te anau,-45.4167,167.7167,51.8,75,84,0.92,NZ,1642971634
473,timra,62.487,17.3257,28.67,94,71,3.44,SE,1642971635
474,tatsuno,34.8667,134.55,41.18,83,100,6.76,JP,1642971635
475,whitley bay,55.0397,-1.4471,43.0,79,75,4.61,GB,1642971635
476,nanning,22.8167,108.3167,66.65,87,100,4.32,CN,1642971512
477,tecoanapa,16.5167,-98.75,84.29,53,3,9.86,MX,1642971636
478,rawson,-43.3002,-65.1023,78.67,25,47,27.83,AR,1642971636
479,mangaratiba,-22.9597,-44.0406,88.93,86,56,1.03,BR,1642971527
480,anloga,5.7947,0.8973,80.78,75,6,9.71,GH,1642971637
481,chenzhou,25.8,113.0333,40.41,96,100,4.18,CN,1642971637
482,ilo,-17.6394,-71.3375,72.81,76,83,6.76,PE,1642971637
483,simplicio mendes,-7.8539,-41.9103,83.89,45,90,0.85,BR,1642971637
484,novikovo,51.1537,37.8879,19.6,91,100,14.67,RU,1642971638
485,acajutla,13.5928,-89.8275,91.8,54,7,6.35,SV,1642971638
486,shimoda,34.6667,138.95,40.1,89,100,13.69,JP,1642971638
487,kirovsk,48.6375,38.6428,24.71,96,100,15.01,UA,1642971639
488,srem,52.0887,17.0151,36.82,98,100,4.85,PL,1642971628
489,tadpatri,14.9167,78.0167,71.58,51,71,5.23,IN,1642971639
490,batagay-alyta,67.8006,130.4114,-12.26,90,100,1.59,RU,1642971640
491,tiebissou,7.1574,-5.2257,78.04,18,6,1.52,CI,1642971640
492,nishihara,26.1842,127.7558,69.85,97,100,13.8,JP,1642971640
493,rorvik,64.8621,11.2373,46.51,81,75,33.38,NO,1642971641
494,walvis bay,-22.9575,14.5053,75.52,75,53,2.04,NA,1642971641
495,razole,16.4833,81.8333,71.49,95,20,3.96,IN,1642971461
496,peniche,39.3558,-9.3811,54.09,79,11,9.95,PT,1642971642
497,sinazongwe,-17.2614,27.4618,75.13,66,54,8.37,ZM,1642971642
498,ishigaki,24.3448,124.1572,70.95,80,99,19.8,JP,1642971643
499,chokurdakh,70.6333,147.9167,-21.57,100,100,6.29,RU,1642971643
500,sorong,-0.8833,131.25,78.06,87,100,6.55,ID,1642971643
501,kurilsk,45.2333,147.8833,23.79,74,99,5.57,RU,1642971644
502,micheweni,-4.9667,39.8333,81.16,75,100,15.73,TZ,1642971644
503,altamira,-3.2033,-52.2064,76.95,94,100,2.26,BR,1642971644
504,mutoko,-17.397,32.2268,62.42,81,59,9.57,ZW,1642971645
505,muisne,0.6,-80.0333,79.21,83,64,9.6,EC,1642971645
506,padang,-0.9492,100.3543,76.41,86,96,3.83,ID,1642971645
507,octeville,49.6261,-1.6435,38.91,87,100,13.8,FR,1642971646
508,stephenville,32.2207,-98.2023,64.94,36,0,10.36,US,1642971636
509,bantry,51.6833,-9.45,45.88,90,100,7.72,IE,1642971646
510,banepa,27.6298,85.5214,44.92,93,75,2.3,NP,1642971646
511,codajas,-3.8367,-62.0569,83.14,72,99,2.24,BR,1642971647
512,arawa,-6.2132,155.5367,80.17,86,48,2.53,PG,1642971647
513,wai,17.9333,73.9,53.22,93,10,2.57,IN,1642971648
514,calama,-22.4667,-68.9333,73.89,20,75,24.16,CL,1642971615
515,burgeo,47.6167,-57.6152,22.44,83,66,8.68,CA,1642971622
516,shchigry,51.8755,36.9043,24.62,97,96,10.69,RU,1642971648
517,udachnyy,66.4167,112.4,-8.25,99,80,5.37,RU,1642971649
518,kumukh,42.1704,47.1161,27.57,60,4,11.34,RU,1642971649
519,mogadishu,2.0371,45.3438,77.77,79,98,23.38,SO,1642971610
520,neftcala,39.3742,49.2472,40.96,60,0,5.14,AZ,1642971650
521,ingraj bazar,25.0,88.15,59.99,78,96,1.88,IN,1642971650
