,City Name,Lat,Lng,Max Temp,Humidity,Cloudiness,Wind Speed,Country,Date
0,jamestown,42.097,-79.2353,74.52,100,75,6.91,US,1626136351
1,puerto ayora,-0.7393,-90.3518,71.4,79,29,9.86,EC,1626136544
2,vanimo,-2.6741,141.3028,86.04,64,9,7.94,PG,1626136544
3,atuona,-9.8,-139.0333,77.65,76,32,21.77,PF,1626136545
4,gravatai,-29.9444,-50.9919,64.18,100,83,4.61,BR,1626136545
5,beidao,34.5686,105.8933,78.76,72,5,1.48,CN,1626136545
6,margate,51.3813,1.3862,62.69,95,100,1.99,GB,1626136546
7,bluff,-46.6,168.3333,45.79,80,97,9.04,NZ,1626136546
8,necochea,-38.5473,-58.7368,47.32,89,6,6.33,AR,1626136410
9,carnarvon,-24.8667,113.6333,66.27,57,75,17.27,AU,1626136547
10,maldonado,-34.6667,-54.9167,61.23,88,100,5.23,UY,1626136547
11,recodo,6.9519,121.9636,77.02,100,90,3.13,PH,1626136548
12,mar del plata,-38.0023,-57.5575,52.12,58,99,3.0,AR,1626136548
13,arraial do cabo,-22.9661,-42.0278,70.16,82,0,10.36,BR,1626136548
14,busselton,-33.65,115.3333,55.04,81,84,23.78,AU,1626136294
15,prince rupert,54.3161,-130.3201,60.89,72,40,5.75,CA,1626136337
16,constitucion,-35.3333,-72.4167,52.02,85,100,4.23,CL,1626136549
17,tasiilaq,65.6145,-37.6368,44.76,93,100,8.72,GL,1626136549
18,honolulu,21.3069,-157.8583,87.62,65,75,1.99,US,1626136349
19,juybar,36.6412,52.9124,75.58,72,1,5.75,IR,1626136551
20,lompoc,34.6391,-120.4579,83.01,72,1,14.97,US,1626136378
21,longyearbyen,78.2186,15.6401,40.84,93,75,0.0,SJ,1626136551
22,lerwick,60.1545,-1.1494,57.2,96,100,0.81,GB,1626136552
23,peterhead,57.5058,-1.7981,56.1,94,56,8.43,GB,1626136552
24,faanui,-16.4833,-151.75,79.63,74,12,20.54,PF,1626136305
25,qaanaaq,77.484,-69.3632,40.84,79,100,4.29,GL,1626136553
26,cape town,-33.9258,18.4232,49.1,83,75,1.01,ZA,1626136553
27,buala,-8.145,159.5921,83.75,75,82,8.79,SB,1626136553
28,basudebpur,21.1353,86.7386,82.99,79,100,5.73,IN,1626136554
29,punta arenas,-53.15,-70.9167,35.71,80,20,29.93,CL,1626136554
30,policoro,40.2115,16.6726,78.6,88,0,2.48,IT,1626136555
31,yellowknife,62.456,-114.3525,75.72,33,75,11.5,CA,1626136555
32,guanica,17.9716,-66.908,85.12,70,95,3.0,PR,1626136555
33,hithadhoo,-0.6,73.0833,81.61,75,100,5.86,MV,1626136556
34,nikolskoye,59.7035,30.7861,65.01,64,0,2.24,RU,1626136314
35,yar-sale,66.8333,70.8333,42.4,66,73,10.87,RU,1626136556
36,bandarbeyla,9.4942,50.8122,80.29,64,100,29.91,SO,1626136557
37,rio gallegos,-51.6226,-69.2181,35.65,69,0,21.85,AR,1626136557
38,darnah,32.767,22.6367,77.29,83,0,13.38,LY,1626136558
39,jiangyou,31.7667,104.7167,80.64,83,78,0.65,CN,1626136558
40,rikitea,-23.1203,-134.9692,73.69,75,5,13.53,PF,1626136284
41,bethel,41.3712,-73.414,74.35,90,90,3.0,US,1626136304
42,dakar,14.6937,-17.4441,80.73,78,20,4.61,SN,1626136319
43,saldanha,-33.0117,17.9442,46.45,60,96,23.8,ZA,1626136559
44,new norfolk,-42.7826,147.0587,53.92,80,5,1.01,AU,1626136559
45,sorland,67.667,12.6934,55.33,88,26,21.52,NO,1626136560
46,lianzhou,24.7811,112.3825,84.54,75,98,4.56,CN,1626136560
47,ushuaia,-54.8,-68.3,33.46,93,75,19.57,AR,1626136560
48,hobart,-42.8794,147.3294,54.27,72,20,3.0,AU,1626136561
49,wageningen,51.9667,5.6667,67.1,93,90,1.14,NL,1626136561
50,port hardy,50.6996,-127.4199,62.78,72,20,11.5,CA,1626136562
51,rancho palos verdes,33.7445,-118.387,88.52,77,20,3.0,US,1626136562
52,tuktoyaktuk,69.4541,-133.0374,62.6,55,40,6.91,CA,1626136562
53,butaritari,3.0707,172.7902,82.49,77,100,13.42,KI,1626136563
54,lebu,-37.6167,-73.65,47.62,84,0,4.27,CL,1626136314
55,langley park,38.9887,-76.9814,89.11,73,1,3.0,US,1626136564
56,avarua,-21.2078,-159.775,80.65,69,20,12.66,CK,1626136303
57,mataura,-46.1927,168.8643,45.16,85,80,2.24,NZ,1626136564
58,sur,22.5667,59.5289,86.14,68,100,2.84,OM,1626136437
59,cherskiy,68.75,161.3,54.82,56,47,11.05,RU,1626136565
60,esperance,-33.8667,121.9,57.04,67,0,24.85,AU,1626136345
61,albany,42.6001,-73.9662,70.61,95,100,3.0,US,1626136411
62,rafaela,-31.2503,-61.4867,64.99,66,100,9.08,AR,1626136565
63,castro,-24.7911,-50.0119,52.99,73,0,2.55,BR,1626136284
64,vaini,-21.2,-175.2,75.69,89,100,13.22,TO,1626136566
65,hilo,19.7297,-155.09,82.13,74,75,11.5,US,1626135889
66,kununurra,-15.7667,128.7333,75.18,35,42,0.0,AU,1626136567
67,hermanus,-34.4187,19.2345,47.8,64,99,24.07,ZA,1626136567
68,maneadero,31.7167,-116.5667,76.19,75,12,5.01,MX,1626136567
69,misasi,-3.0,33.0833,66.2,57,96,4.09,TZ,1626136568
70,chokurdakh,70.6333,147.9167,50.16,38,100,9.06,RU,1626136568
71,khani,41.9563,42.9566,67.57,97,100,1.52,GE,1626136569
72,hasaki,35.7333,140.8333,79.2,91,100,1.03,JP,1626136569
73,uyuni,-20.4597,-66.825,43.59,27,94,5.14,BO,1626136310
74,lavrentiya,65.5833,-171.0,48.9,85,96,7.74,RU,1626136432
75,amod,21.9833,72.9,80.91,84,51,10.76,IN,1626136570
76,port alfred,-33.5906,26.891,54.14,61,96,29.55,ZA,1626136570
77,port lincoln,-34.7333,135.8667,54.72,64,100,15.66,AU,1626136571
78,gusau,12.1628,6.6614,72.88,88,100,8.01,NG,1626136571
79,hashtrud,37.4779,47.0508,63.45,73,0,4.52,IR,1626136572
80,razole,16.4833,81.8333,79.09,90,100,7.7,IN,1626136572
81,ginir,7.1333,40.7,57.22,72,96,12.75,ET,1626136572
82,los llanos de aridane,28.6585,-17.9182,71.35,78,0,14.97,ES,1626136573
83,kindu,-2.95,25.95,67.28,40,3,1.66,CD,1626136573
84,lorengau,-2.0226,147.2712,84.2,76,24,13.11,PG,1626136573
85,puerto el triunfo,13.2833,-88.55,88.72,66,98,5.26,SV,1626136574
86,makakilo city,21.3469,-158.0858,86.32,61,20,12.66,US,1626136574
87,hofn,64.2539,-15.2082,53.08,95,100,9.91,IS,1626136575
88,aykhal,66.0,111.5,62.98,68,100,11.12,RU,1626136575
89,ulladulla,-35.35,150.4667,64.87,50,66,7.85,AU,1626136575
90,broome,42.2506,-75.833,76.17,89,75,4.61,US,1626136576
91,komsomolskiy,40.4272,71.7189,72.82,64,75,18.41,UZ,1626136576
92,thompson,55.7435,-97.8558,60.96,77,90,11.5,CA,1626136576
93,awjilah,29.1081,21.2869,84.4,34,38,8.68,LY,1626136577
94,aswan,24.0934,32.907,88.9,25,0,5.75,EG,1626136577
95,nanortalik,60.1432,-45.2371,38.91,92,50,10.42,GL,1626136311
96,san quintin,30.4833,-115.95,70.3,70,99,5.59,MX,1626136355
97,esmeralda,21.8525,-78.1169,70.84,86,51,12.26,CU,1626136578
98,vuktyl,63.8567,57.3094,45.14,76,0,4.25,RU,1626136578
99,katsuura,35.1333,140.3,80.71,80,100,3.65,JP,1626136578
100,bredasdorp,-34.5322,20.0403,47.28,76,91,12.66,ZA,1626136579
101,saint george,37.1041,-113.5841,108.19,14,1,8.05,US,1626136458
102,ancud,-41.8697,-73.8203,42.33,75,17,4.32,CL,1626136579
103,clyde river,70.4692,-68.5914,50.23,76,90,12.66,CA,1626136580
104,tuy hoa,13.0833,109.3,81.41,80,95,3.96,VN,1626136580
105,mandera,3.9366,41.867,76.5,64,91,20.13,KE,1626136323
106,omboue,-1.5746,9.2618,72.39,83,93,7.56,GA,1626136581
107,oranjemund,-28.55,16.4333,53.4,70,47,9.6,NA,1626136581
108,vila franca do campo,37.7167,-25.4333,66.61,75,65,11.59,PT,1626136582
109,viedma,-40.8135,-62.9967,43.68,67,6,4.72,AR,1626136325
110,kapaa,22.0752,-159.319,85.98,74,75,3.0,US,1626136582
111,yining,29.0361,114.5636,89.91,56,100,8.52,CN,1626136582
112,king city,36.2127,-121.126,106.23,17,0,12.26,US,1626136557
113,avera,33.194,-82.5271,77.05,91,49,15.05,US,1626136583
114,vawkavysk,53.1561,24.4513,66.02,79,96,6.69,BY,1626136583
115,port elizabeth,-33.918,25.5701,52.11,46,0,40.29,ZA,1626136584
116,dukat,62.55,155.55,55.8,80,100,5.41,RU,1626136584
117,saint-louis,16.3333,-15.0,85.64,52,88,11.81,SN,1626136584
118,koraput,18.8167,82.7167,71.42,87,98,3.09,IN,1626136585
119,garissa,-0.4536,39.6401,74.71,71,100,17.05,KE,1626136585
120,lakes entrance,-37.8811,147.981,59.58,58,68,7.09,AU,1626136586
121,chuy,-33.6971,-53.4616,58.96,89,57,6.49,UY,1626136302
122,ponta do sol,32.6667,-17.1,70.43,75,98,11.48,PT,1626136586
123,charters towers,-20.1,146.2667,71.26,51,61,10.02,AU,1626136587
124,kodiak,57.79,-152.4072,54.91,82,90,12.66,US,1626136587
125,moron,-34.6534,-58.6198,62.01,98,100,1.99,AR,1626136587
126,bela,25.9333,81.9833,86.38,65,100,6.76,IN,1626136588
127,ibotirama,-12.1853,-43.2206,72.25,42,15,3.85,BR,1626136588
128,walvis bay,-22.9575,14.5053,55.09,76,0,13.8,NA,1626136588
129,goundam,16.4145,-3.6708,88.54,42,49,13.06,ML,1626136589
130,meadow lake,34.8014,-106.5436,90.84,67,100,18.25,US,1626136589
131,gbadolite,4.2833,21.0167,69.98,95,94,2.46,CD,1626136590
132,dolores,-36.3132,-57.6792,54.99,88,100,3.62,AR,1626136590
133,namibe,-15.1961,12.1522,62.58,81,90,2.98,AO,1626136591
134,aksu,41.1231,80.2644,77.34,32,36,3.62,CN,1626136591
135,vitoria da conquista,-14.8661,-40.8394,60.46,75,27,6.51,BR,1626136591
136,riyadh,24.6877,46.7219,89.74,12,94,2.89,SA,1626136592
137,shenjiamen,29.9576,122.298,80.02,88,100,23.94,CN,1626136592
138,portland,45.5234,-122.6762,91.62,40,20,1.99,US,1626136123
139,portmore,17.9702,-76.8672,85.96,68,20,24.16,JM,1626136593
140,harnai,30.1005,67.9374,80.67,71,63,1.45,PK,1626136593
141,ribeira grande,38.5167,-28.7,68.65,71,28,11.92,PT,1626136593
142,tabou,4.423,-7.3528,76.48,78,100,9.78,CI,1626136594
143,port shepstone,-30.7414,30.455,68.83,37,5,15.61,ZA,1626136414
144,dejen,10.1667,38.1333,51.89,87,54,4.38,ET,1626136595
145,aripuana,-9.1667,-60.6333,75.36,48,72,1.19,BR,1626136595
146,powell,40.1578,-83.0752,80.76,86,1,1.01,US,1626136405
147,bathsheba,13.2167,-59.5167,79.41,89,75,18.41,BB,1626136595
148,bambous virieux,-20.3428,57.7575,70.05,68,40,11.5,MU,1626136596
149,hami,42.8,93.45,83.39,21,17,15.68,CN,1626136596
150,vostok,46.4856,135.8833,82.98,52,7,1.23,RU,1626136597
151,praia da vitoria,38.7333,-27.0667,68.76,83,20,14.0,PT,1626136597
152,turukhansk,65.8167,87.9833,47.35,55,91,10.89,RU,1626136598
153,dikson,73.5069,80.5464,33.4,86,100,18.21,RU,1626136598
154,geraldton,-28.7667,114.6,63.01,77,75,16.11,AU,1626136598
155,huaibei,33.9744,116.7917,83.41,78,87,14.63,CN,1626136599
156,merauke,-8.4667,140.3333,82.27,75,32,12.97,ID,1626136599
157,polovinnoye,54.7914,65.9864,50.2,92,100,18.01,RU,1626136599
158,burnie,-41.0667,145.9167,51.96,88,73,2.26,AU,1626136600
159,shar,49.5886,81.0453,69.75,58,100,9.55,KZ,1626136600
160,mawlaik,23.6333,94.4167,80.13,87,31,2.15,MM,1626136601
161,camara de lobos,32.6333,-16.9667,70.43,73,40,24.16,PT,1626136601
162,vallenar,-28.5708,-70.7581,56.25,72,5,2.75,CL,1626136602
163,babstovo,48.1167,132.4833,83.59,67,30,6.58,RU,1626136602
164,kidal,18.4411,1.4078,92.28,11,100,4.99,ML,1626136602
165,mehamn,71.0357,27.8492,51.48,88,22,17.72,NO,1626136603
166,marsa matruh,31.3525,27.2453,73.6,83,0,4.61,EG,1626136603
167,port-de-bouc,43.4,4.9833,67.59,77,0,11.5,FR,1626136604
168,batagay,67.6333,134.6333,59.45,75,98,4.0,RU,1626136604
169,saint-philippe,-21.3585,55.7679,67.59,77,38,12.35,RE,1626136604
170,concarneau,47.875,-3.9225,59.77,95,34,8.32,FR,1626136605
171,tiksi,71.6872,128.8694,48.31,65,74,7.47,RU,1626136605
172,torbay,47.6666,-52.7314,53.58,94,90,24.16,CA,1626136531
173,tecoanapa,16.5167,-98.75,82.49,75,97,5.64,MX,1626136606
174,airai,-8.9266,125.4092,69.26,41,30,4.63,TL,1626136606
175,ilulissat,69.2167,-51.1,48.22,61,18,8.05,GL,1626136607
176,khatanga,71.9667,102.5,46.78,51,100,12.12,RU,1626136607
177,muros,42.7762,-9.0603,60.84,88,12,5.01,ES,1626136608
178,upernavik,72.7868,-56.1549,42.64,67,1,3.31,GL,1626136608
179,naze,28.3667,129.4833,83.32,76,100,7.25,JP,1626136609
180,dunedin,-45.8742,170.5036,51.8,51,19,10.0,NZ,1626136350
181,santa marta,11.2408,-74.199,86.99,68,36,7.0,CO,1626136383
182,iberia,29.9502,-91.7507,84.27,74,1,5.75,US,1626136609
183,san patricio,28.017,-97.5169,88.52,78,100,10.56,US,1626136610
184,finschhafen,-6.6024,147.8681,81.97,74,54,10.74,PG,1626136610
185,atar,20.5169,-13.0499,94.37,27,69,3.58,MR,1626136610
186,chimbote,-9.0853,-78.5783,64.67,84,92,9.95,PE,1626136611
187,kaniama,-7.5667,24.1833,62.13,37,5,3.0,CD,1626136611
188,zhigansk,66.7697,123.3711,59.99,71,100,7.76,RU,1626136612
189,ulaanbaatar,47.9077,106.8832,62.73,72,40,11.18,MN,1626136612
190,pisco,-13.7,-76.2167,64.45,82,0,14.97,PE,1626136613
191,narsaq,60.9167,-46.05,48.42,90,100,2.48,GL,1626136613
192,pangai,-19.8,-174.35,82.51,74,75,10.36,TO,1626136614
193,shingu,33.7333,135.9833,81.59,65,6,4.07,JP,1626136614
194,sao filipe,14.8961,-24.4956,72.3,80,71,3.29,CV,1626136373
195,severo-kurilsk,50.6789,156.125,54.9,88,100,8.81,RU,1626136614
196,mareeba,-17.0,145.4333,73.49,78,100,7.23,AU,1626136615
197,kushiro,42.975,144.3747,63.55,100,75,8.05,JP,1626136615
198,acapulco,16.8634,-99.8901,85.82,79,75,6.91,MX,1626136616
199,swan hill,-35.3378,143.5544,56.64,66,100,8.3,AU,1626136616
200,kysyl-syr,63.8986,122.7617,73.89,42,79,4.21,RU,1626136616
201,clarin,8.2023,123.8582,84.18,74,84,2.06,PH,1626136617
202,katherine,-14.4667,132.2667,71.92,49,7,5.75,AU,1626136517
203,tessalit,20.1986,1.0114,93.38,11,7,3.22,ML,1626136618
204,pevek,69.7008,170.3133,40.91,84,70,3.85,RU,1626136618
205,tromso,69.6496,18.957,58.37,72,75,1.99,NO,1626136343
206,ngunguru,-35.6167,174.5,57.16,62,100,13.27,NZ,1626136618
207,montes altos,-5.8333,-47.0667,79.9,43,41,3.38,BR,1626136619
208,lagoa,39.05,-27.9833,67.05,73,45,17.31,PT,1626136619
209,laguna,38.421,-121.4238,108.43,33,1,5.01,US,1626136361
210,santa maria,-29.6842,-53.8069,56.5,100,31,2.3,BR,1626136620
211,port augusta,-32.5,137.7667,58.71,55,99,12.26,AU,1626136620
212,kiruna,67.8557,20.2251,47.32,87,51,5.75,SE,1626136621
213,solwezi,-12.1688,26.3894,51.73,69,9,2.62,ZM,1626136621
214,coolum beach,-26.5333,153.1,68.11,78,0,1.52,AU,1626136622
215,eyl,7.9803,49.8164,80.46,53,100,28.9,SO,1626136622
216,barrow,71.2906,-156.7887,46.42,79,1,14.97,US,1626136622
217,grindavik,63.8424,-22.4338,50.56,93,90,10.36,IS,1626136623
218,iqaluit,63.7506,-68.5145,46.13,81,75,8.01,CA,1626136623
219,marzuq,14.4,46.4667,76.19,68,100,9.24,YE,1626136624
220,balabac,7.9868,117.0645,84.69,69,81,3.85,PH,1626136624
221,victoria,22.2855,114.1577,88.97,82,62,1.01,HK,1626136430
222,sao felix do xingu,-6.6447,-51.995,79.54,49,86,1.92,BR,1626136401
223,sarkand,45.41,79.9186,74.57,34,21,4.52,KZ,1626136625
224,tres passos,-27.4556,-53.9319,59.67,74,99,3.53,BR,1626136625
225,les herbiers,46.8667,-1.0167,58.71,96,10,5.59,FR,1626136625
226,marawi,7.9986,124.2928,72.64,80,100,1.01,PH,1626136428
227,abashiri,44.0213,144.2697,79.09,69,40,4.61,JP,1626136626
228,aviles,43.5547,-5.9248,61.99,77,75,12.66,ES,1626136627
229,dawson creek,55.7666,-120.2362,80.24,29,1,2.3,CA,1626136627
230,oistins,13.0667,-59.5333,78.89,89,75,18.41,BB,1626136569
231,sun city west,33.662,-112.3413,107.83,24,1,5.01,US,1626136513
232,forest,37.3638,-79.2897,85.21,70,1,1.01,US,1626136627
233,fairview,40.8126,-73.999,78.21,85,90,10.36,US,1626136628
234,bilma,18.6853,12.9164,88.0,30,99,6.8,NE,1626136628
235,puerto del rosario,28.5004,-13.8627,76.75,61,0,8.05,ES,1626136629
236,papetoai,-17.4961,-149.8729,83.79,71,3,17.29,PF,1626136629
237,bairiki,1.3292,172.9752,86.0,74,40,10.36,KI,1626136629
238,kralendijk,12.15,-68.2667,82.38,83,20,18.41,BQ,1626136630
239,lima,-12.0432,-77.0282,63.9,83,90,6.91,PE,1626136620
240,usinsk,65.9939,57.5281,44.56,69,14,3.15,RU,1626136630
241,havoysund,70.9963,24.6622,52.68,87,91,12.73,NO,1626136631
242,lagunas,-5.2269,-75.6753,70.66,98,100,2.62,PE,1626136631
243,rio grande,-32.035,-52.0986,56.95,85,10,8.23,BR,1626136631
244,cayenne,4.9333,-52.3333,81.09,84,75,1.01,GF,1626136632
245,mackay,-21.15,149.2,72.05,77,40,14.97,AU,1626136632
246,vardo,70.3705,31.1107,52.36,85,97,14.67,NO,1626136633
247,fukue,32.6881,128.8419,82.76,94,75,9.22,JP,1626136633
248,fortuna,40.5982,-124.1573,61.86,89,90,1.99,US,1626136634
249,padang,-0.9492,100.3543,73.45,86,100,6.49,ID,1626136498
250,bambanglipuro,-7.95,110.2833,60.6,79,59,7.81,ID,1626136634
251,mandapeta,16.8667,81.9333,79.14,91,100,6.04,IN,1626136634
252,salamanca,40.8333,-6.0,51.58,74,35,3.4,ES,1626136635
253,coahuayana,18.7333,-103.6833,87.28,81,100,1.74,MX,1626136635
254,rocha,-34.4833,-54.3333,62.64,88,100,7.09,UY,1626136527
255,harper,4.375,-7.7169,75.99,79,94,10.31,LR,1626136635
256,roald,62.5833,6.1333,62.17,94,75,10.36,NO,1626136382
257,mahebourg,-20.4081,57.7,70.09,68,40,11.5,MU,1626136636
258,montale,43.9356,11.0171,73.11,68,13,5.01,IT,1626136636
259,isangel,-19.55,169.2667,77.11,78,90,0.0,VU,1626136383
260,vestmanna,62.1564,-7.1664,50.92,93,90,3.44,FO,1626136637
261,norman wells,65.282,-126.8329,80.64,24,20,11.5,CA,1626136637
262,ocampo,21.65,-101.5,59.85,70,100,13.96,MX,1626136637
263,dingle,10.9995,122.6711,84.0,80,100,4.36,PH,1626136638
264,tuatapere,-46.1333,167.6833,46.71,75,60,3.29,NZ,1626136638
265,sonari,27.0667,95.0333,80.65,93,69,3.31,IN,1626136639
266,bonavista,48.6499,-53.1147,51.12,89,100,29.89,CA,1626136639
267,pervomayskoye,43.919,46.7102,72.03,56,41,5.75,RU,1626136640
268,antofagasta,-23.65,-70.4,58.28,79,100,4.85,CL,1626136347
269,kedrovyy,56.1667,91.8167,61.21,71,98,0.38,RU,1626136640
270,ixtapa,20.7,-105.2,88.83,58,75,3.44,MX,1626136641
271,deputatskiy,69.3,139.9,48.56,75,100,4.16,RU,1626136641
272,hambantota,6.1241,81.1185,77.34,100,0,9.22,LK,1626136642
273,meulaboh,4.1363,96.1285,77.29,80,84,3.91,ID,1626136642
274,cockburn town,21.4612,-71.1419,80.56,83,75,16.11,TC,1626136575
275,kaitangata,-46.2817,169.8464,48.92,73,68,6.38,NZ,1626136643
276,stulovo,58.7225,50.1439,60.08,88,99,1.9,RU,1626136643
277,mahajanga,-15.7167,46.3167,68.02,68,20,6.91,MG,1626136643
278,wladyslawowo,54.7909,18.4009,65.93,94,91,8.34,PL,1626136644
279,saskylakh,71.9167,114.0833,59.32,59,100,8.48,RU,1626136644
280,kamenka,51.3223,42.7678,59.41,74,0,6.02,RU,1626136645
281,amahai,-3.3333,128.9167,80.83,81,91,0.89,ID,1626136645
282,ugoofaaru,5.6667,73.0,81.66,80,100,12.8,MV,1626136645
283,sakakah,29.9697,40.2064,90.97,21,0,18.61,SA,1626136646
284,cruzeiro do sul,-29.5128,-51.9853,63.09,82,87,3.8,BR,1626136646
285,shu,43.5983,73.7614,74.68,32,37,11.03,KZ,1626136647
286,bac lieu,9.285,105.7244,81.52,77,100,3.2,VN,1626136647
287,samarai,-10.6167,150.6667,79.54,84,15,14.9,PG,1626136648
288,pavilosta,56.8879,21.1859,71.55,88,100,8.57,LV,1626136648
289,luena,-11.7833,19.9167,50.7,54,53,3.33,AO,1626136648
290,anqing,30.5092,117.0506,87.66,67,100,15.32,CN,1626136649
291,puerto escondido,15.85,-97.0667,85.03,61,75,0.0,MX,1626136649
292,salalah,17.0151,54.0924,80.69,89,90,8.05,OM,1626136650
293,niagara falls,43.1001,-79.0663,76.91,82,40,6.91,CA,1626136650
294,olafsvik,64.8945,-23.7142,50.56,88,100,13.44,IS,1626136650
295,rongcheng,30.634,117.8517,90.34,63,100,8.05,CN,1626136651
296,raudeberg,61.9875,5.1352,59.67,91,100,6.98,NO,1626136651
297,kurilsk,45.2333,147.8833,62.74,81,87,2.57,RU,1626136652
298,pimenta bueno,-11.6725,-61.1936,73.0,44,0,2.55,BR,1626136652
299,mpika,-11.8343,31.4529,50.86,90,0,5.14,ZM,1626136652
300,shache,38.4167,77.2406,77.11,39,76,6.91,CN,1626136653
301,wala,4.578,12.3154,67.17,100,100,3.09,CM,1626136653
302,baruun-urt,46.6806,113.2792,72.23,70,100,9.98,MN,1626136654
303,cefalu,38.0386,14.0229,84.36,48,0,1.99,IT,1626136654
304,codrington,-38.2667,141.9667,53.26,87,100,12.41,AU,1626136654
305,mount gambier,-37.8333,140.7667,51.71,100,90,9.22,AU,1626136655
306,bulgan,48.8125,103.5347,56.91,96,100,5.44,MN,1626136655
307,la ronge,55.1001,-105.2842,64.65,68,75,5.75,CA,1626136656
308,hailar,49.2,119.7,73.78,77,100,13.56,CN,1626136561
309,cidreira,-30.1811,-50.2056,60.6,91,100,10.04,BR,1626136657
310,kavieng,-2.5744,150.7967,85.12,70,83,17.18,PG,1626136657
311,brazzaville,-4.2658,15.2832,70.11,88,100,5.75,CG,1626136380
312,nueva helvecia,-34.3,-57.2333,59.59,90,100,7.02,UY,1626136454
313,kahului,20.8947,-156.47,86.02,60,40,21.85,US,1626136658
314,lewisville,33.0462,-96.9942,88.59,61,1,1.01,US,1626135891
315,loikaw,19.6742,97.2094,71.4,92,65,0.56,MM,1626136658
316,coihaique,-45.5752,-72.0662,42.75,70,90,3.44,CL,1626136567
317,bongandanga,1.5,21.05,70.11,72,26,2.75,CD,1626136659
318,luderitz,-26.6481,15.1594,52.21,77,4,10.51,NA,1626136660
319,cabo san lucas,22.8909,-109.9124,91.18,51,20,14.97,MX,1626136513
320,east london,-33.0153,27.9116,55.09,62,100,24.43,ZA,1626136660
321,fresnillo,23.1667,-102.8833,62.15,70,100,14.34,MX,1626136439
322,manta,-0.95,-80.7333,73.18,83,20,12.66,EC,1626136433
323,korla,41.7597,86.1469,79.25,34,100,7.02,CN,1626136389
324,port macquarie,-31.4333,152.9167,57.16,53,0,3.06,AU,1626136661
325,davila,18.4726,120.5763,85.98,73,49,5.08,PH,1626136662
326,sibolga,1.7427,98.7792,78.64,72,90,1.74,ID,1626136662
327,estrela,-28.0611,-50.9383,50.5,94,100,4.25,BR,1626136663
328,georgetown,5.4112,100.3354,80.89,91,20,1.01,MY,1626136647
329,yarkovo,57.4028,67.0786,51.6,68,100,11.23,RU,1626136664
330,imperia,43.9667,7.7833,69.4,61,100,5.82,IT,1626136664
331,price,39.5994,-110.8107,94.12,14,1,0.0,US,1626136664
332,fairbanks,64.8378,-147.7164,80.6,29,1,3.0,US,1626136381
333,komatipoort,-25.4332,31.9548,59.54,38,0,4.61,ZA,1626136665
334,doha,25.2867,51.5333,93.18,60,0,3.44,QA,1626136383
335,dhidhdhoo,6.8833,73.1,81.82,80,100,14.79,MV,1626136666
336,iskateley,67.6803,53.1512,42.44,79,16,2.37,RU,1626136666
337,santa comba,43.0331,-8.8093,57.67,95,86,2.71,ES,1626136667
338,ereymentau,51.6199,73.1033,55.8,81,79,14.7,KZ,1626136667
339,guerrero negro,27.9769,-114.0611,72.84,71,26,13.96,MX,1626136668
340,najran,17.4924,44.1277,90.25,18,100,5.35,SA,1626136668
341,tezu,27.9167,96.1667,82.81,73,27,1.03,IN,1626136669
342,zacatlan,19.9333,-97.9667,57.06,96,100,2.42,MX,1626136669
343,freeport,40.6576,-73.5832,78.13,92,90,5.01,US,1626136668
344,khuzdar,27.7384,66.6434,78.51,69,100,4.14,PK,1626136670
345,port hedland,-20.3167,118.5667,69.85,100,90,0.0,AU,1626136670
346,hamilton,39.1834,-84.5333,80.89,76,1,5.75,US,1626136440
347,port blair,11.6667,92.75,81.86,79,88,11.05,IN,1626136671
348,tete,-16.1564,33.5867,65.05,70,13,1.54,MZ,1626136671
349,bela vista,-22.1089,-56.5211,68.63,40,6,4.25,BR,1626136671
350,high rock,26.6208,-78.2833,82.42,76,77,19.98,BS,1626136672
351,danilov,58.1908,40.1717,66.43,67,91,4.85,RU,1626136672
352,thinadhoo,0.5333,72.9333,81.57,74,100,2.3,MV,1626136673
353,hualmay,-11.0964,-77.6139,63.41,82,76,9.13,PE,1626136673
354,pacific grove,36.6177,-121.9166,86.61,84,75,5.01,US,1626136674
355,changli,39.7042,119.1506,77.04,95,98,9.1,CN,1626136674
356,petatlan,17.5167,-101.2667,84.0,85,100,1.9,MX,1626136674
357,labuhan,-6.8844,112.2051,79.66,76,54,9.22,ID,1626136675
358,marsassoum,12.8275,-15.9806,78.89,87,100,5.91,SN,1626136675
359,nanyang,32.9947,112.5328,82.98,74,6,11.32,CN,1626136676
360,songjianghe,42.1859,127.479,82.17,56,81,3.65,CN,1626136676
361,navahrudak,53.6,25.8333,65.25,84,100,5.32,BY,1626136677
362,cartagena,10.3997,-75.5144,82.02,89,40,11.5,CO,1626136677
363,alofi,-19.0595,-169.9187,80.49,78,75,13.8,NU,1626136677
364,nishihara,26.1842,127.7558,87.08,75,75,9.22,JP,1626136678
365,naples,40.8333,14.25,78.13,82,0,1.14,IT,1626136678
366,tual,-5.6667,132.75,80.62,84,23,21.41,ID,1626136679
367,saint anthony,45.0205,-93.218,81.18,47,1,1.01,US,1626136679
368,tilichiki,60.4667,166.1,63.27,62,8,5.39,RU,1626136679
369,uruguaiana,-29.7547,-57.0883,66.13,72,0,4.61,BR,1626136680
370,tulagi,-9.0996,160.1476,82.13,76,25,10.87,SB,1626136680
371,zelenogorskiy,55.0333,87.0,61.32,93,26,3.06,RU,1626136681
372,yerbogachen,61.2767,108.0108,62.13,76,100,6.31,RU,1626136681
373,chiang rai,19.9167,99.9167,78.13,100,20,2.3,TH,1626136682
374,cabedelo,-6.9811,-34.8339,72.27,81,7,11.07,BR,1626136682
375,aklavik,68.2191,-135.0107,76.03,25,27,9.71,CA,1626136683
376,kirakira,-10.4544,161.9205,84.22,72,34,8.93,SB,1626136683
377,at-bashi,41.1702,75.8106,55.94,76,100,1.03,KG,1626136684
378,surt,31.2089,16.5887,78.53,74,0,7.72,LY,1626136401
379,la rioja,42.25,-2.5,51.48,88,77,5.01,ES,1626136684
380,roebourne,-20.7833,117.1333,75.87,78,8,9.04,AU,1626136640
381,terenos,-20.4422,-54.8603,69.51,49,0,5.75,BR,1626136685
382,oga,46.4631,10.347,63.28,97,61,6.44,IT,1626136685
383,takoradi,4.8845,-1.7554,75.2,80,72,7.52,GH,1626136686
384,kruisfontein,-34.0033,24.7314,49.89,63,82,27.98,ZA,1626136686
385,belmonte,-15.8631,-38.8828,72.1,86,30,6.96,BR,1626136687
386,hurricane,37.1753,-113.2899,106.27,34,45,14.72,US,1626136399
387,cintalapa,16.6951,-93.7272,71.44,96,100,3.29,MX,1626136687
388,nantucket,41.2835,-70.0995,66.34,95,90,13.8,US,1626136687
389,manggar,-2.8833,108.2667,79.65,86,100,10.96,ID,1626136688
390,san cristobal,7.7669,-72.225,75.38,92,83,3.33,VE,1626136688
391,kaeo,-35.1,173.7833,57.33,67,100,11.1,NZ,1626136689
392,sao paulo de olivenca,-3.3783,-68.8725,72.3,97,85,1.03,BR,1626136689
393,the valley,18.217,-63.0578,82.26,79,100,19.93,AI,1626136400
394,odesskoye,54.2111,72.9651,59.58,88,84,8.88,RU,1626136690
395,methoni,36.8197,21.7049,79.21,73,0,8.79,GR,1626136691
396,fayaoue,-20.65,166.5333,71.69,67,98,14.52,NC,1626136691
397,bonthe,7.5264,-12.505,75.76,91,100,6.85,SL,1626136691
398,hansi,29.1,75.9667,83.3,74,100,13.53,IN,1626136578
399,goderich,43.7501,-81.7165,71.92,73,100,2.3,CA,1626136692
400,manado,1.487,124.8455,83.17,78,40,2.3,ID,1626136692
401,dingli,35.8614,14.3822,77.81,94,20,5.75,MT,1626136693
402,caravelas,-17.7125,-39.2481,70.74,80,0,4.97,BR,1626136693
403,christchurch,-43.5333,172.6333,51.33,69,11,4.0,NZ,1626136694
404,kargasok,59.0556,80.8572,57.51,66,100,7.4,RU,1626136694
405,japura,-0.3167,102.35,73.56,99,100,3.56,ID,1626136695
406,laranja da terra,-19.8989,-41.0567,62.22,89,0,4.27,BR,1626136695
407,gari,59.4307,62.3497,52.43,64,88,5.82,RU,1626136695
408,beyneu,45.3167,55.2,75.43,45,0,9.24,KZ,1626136696
409,mitsukaido,36.0167,139.9833,83.08,73,99,4.09,JP,1626136696
410,makushino,55.2103,67.2442,50.63,93,100,22.08,RU,1626136697
411,verkhnyaya inta,65.9811,60.3094,45.66,66,21,3.74,RU,1626136443
412,talcahuano,-36.7167,-73.1167,42.48,87,0,8.05,CL,1626136697
413,tooele,40.5308,-112.2983,99.97,20,1,8.05,US,1626136697
414,bundaberg,-24.85,152.35,66.49,72,0,9.22,AU,1626136698
415,panzhihua,26.5851,101.7128,74.46,85,100,0.96,CN,1626136698
416,guiratinga,-16.3494,-53.7583,67.35,36,0,4.38,BR,1626136698
417,touros,-5.1989,-35.4608,77.9,81,100,13.44,BR,1626136699
418,malibu,34.005,-118.8101,92.62,84,18,1.99,US,1626136699
419,les cayes,18.2,-73.75,81.14,82,99,10.76,HT,1626136700
420,ambilobe,-13.2,49.05,63.41,83,0,4.54,MG,1626136700
421,vila velha,-20.3297,-40.2925,69.75,94,40,3.44,BR,1626136643
422,west plains,36.7281,-91.8524,76.68,93,90,3.44,US,1626136701
423,pangody,65.85,74.4859,44.96,60,91,11.59,RU,1626136701
424,middlebury,44.0153,-73.1673,75.7,73,75,5.75,US,1626136702
425,port townsend,48.117,-122.7605,83.48,66,1,8.01,US,1626136702
426,bougouni,11.417,-7.479,77.14,73,65,4.23,ML,1626136703
427,sao joao da barra,-21.6403,-41.0511,69.87,86,0,6.11,BR,1626136703
428,namatanai,-3.6667,152.4333,84.49,69,31,10.16,PG,1626136704
429,taksimo,56.3444,114.8794,70.59,55,0,0.76,RU,1626136704
430,raga,8.4596,25.678,68.76,97,96,4.29,SS,1626136705
431,auki,-8.7676,160.7034,85.37,65,89,2.66,SB,1626136705
432,richards bay,-28.783,32.0377,64.71,42,4,10.42,ZA,1626136706
433,asau,46.4333,26.4,67.39,88,15,4.45,RO,1626136706
434,broken hill,-31.95,141.4333,53.31,54,95,9.22,AU,1626136706
435,nanchong,30.7951,106.0847,83.23,83,2,3.24,CN,1626136707
436,tarbagatay,51.4803,107.3602,56.73,67,100,4.9,RU,1626136707
437,krasnyy oktyabr,56.1167,38.8833,62.35,75,2,2.66,RU,1626136707
438,punta gorda,26.9298,-82.0454,80.98,76,1,3.0,US,1626136708
439,cran-gevrier,45.9,6.1,65.75,100,75,9.22,FR,1626136708
440,pemangkat,1.1667,108.9667,80.58,83,100,6.06,ID,1626136709
441,phalodi,27.1333,72.3667,89.06,63,100,8.84,IN,1626136709
442,srednekolymsk,67.45,153.6833,42.78,83,100,8.12,RU,1626136709
443,ibate,-21.9547,-47.9967,56.14,41,26,5.66,BR,1626136710
444,lata,40.1629,-8.3327,58.82,96,86,4.03,PT,1626136431
445,dannenberg,53.0967,11.09,69.15,90,100,2.62,DE,1626136710
446,morondava,-20.2833,44.2833,66.16,58,19,7.36,MG,1626136711
447,henties bay,-22.116,14.2845,54.86,81,0,13.82,NA,1626136711
448,jinchang,38.4953,102.1739,82.53,26,13,19.1,CN,1626136430
449,coquimbo,-29.9533,-71.3436,56.93,82,90,6.91,CL,1626136432
450,maues,-3.3836,-57.7186,79.57,73,100,1.99,BR,1626136712
451,provideniya,64.3833,-173.3,48.31,76,20,11.18,RU,1626136712
452,lyantonde,-0.4031,31.1572,66.38,66,93,1.77,UG,1626136713
453,itoman,26.1247,127.6694,87.82,73,75,9.22,JP,1626136713
454,bekasi,-6.2349,106.9896,84.49,78,20,4.61,ID,1626136713
455,peque,7.0212,-75.9093,68.14,98,100,1.63,CO,1626136714
456,cowra,-33.8333,148.6833,58.26,76,94,9.28,AU,1626136714
457,fort nelson,58.8053,-122.7002,78.39,31,40,4.61,CA,1626136715
458,popondetta,-8.7537,148.2534,88.41,53,7,4.07,PG,1626136715
459,oriximina,-1.7656,-55.8661,77.58,83,100,4.23,BR,1626136716
460,emilio carranza,19.9711,-96.6114,78.98,79,100,3.49,MX,1626136716
461,lazaro cardenas,17.9583,-102.2,82.08,81,100,2.1,MX,1626136716
462,haapiti,-17.5667,-149.8667,83.93,72,2,17.83,PF,1626136716
463,loreto,22.2667,-101.9667,65.07,60,100,15.14,MX,1626136717
464,copiapo,-27.3667,-70.3333,51.49,68,6,1.61,CL,1626136717
465,cururupu,-1.8283,-44.8683,74.39,95,55,3.11,BR,1626136717
466,biak,-0.9131,122.8766,80.06,76,100,7.72,ID,1626136718
467,iracoubo,5.4802,-53.2011,77.25,89,100,6.78,GF,1626136719
468,nusaybin,37.0778,41.2178,76.59,20,0,6.91,TR,1626136719
469,marsabit,2.3284,37.9899,62.47,60,78,16.62,KE,1626136719
470,andros,37.8333,24.9333,79.36,68,0,13.51,GR,1626136720
471,azuaga,38.2667,-5.6833,62.96,50,68,8.03,ES,1626136720
472,tandalti,13.0167,31.8667,79.52,66,98,11.63,SD,1626136720
473,bardiyah,31.7561,25.0865,76.91,73,0,9.22,LY,1626136721
474,santa barbara,34.7333,-120.0343,77.34,47,1,6.91,US,1626136721
475,mount isa,-20.7333,139.5,67.77,24,100,10.36,AU,1626136722
476,varhaug,58.6147,5.6457,63.68,74,100,6.04,NO,1626136722
477,hervey bay,-25.2986,152.8535,69.03,77,0,3.0,AU,1626136723
478,chippewa falls,44.9369,-91.3929,80.78,50,20,9.22,US,1626136501
479,baherden,38.4362,57.4316,85.05,34,0,6.08,TM,1626136723
480,wolsztyn,52.1155,16.1171,67.05,81,0,5.88,PL,1626136724
481,beloha,-25.1667,45.05,63.16,66,0,7.2,MG,1626136724
482,mahdalynivka,48.921,34.9156,64.96,85,6,7.49,UA,1626136724
483,stornoway,58.2093,-6.3865,56.93,94,90,9.22,GB,1626136725
484,magadan,59.5667,150.8,51.33,97,100,3.6,RU,1626136725
485,mandapam,9.2833,79.1167,83.23,69,100,19.8,IN,1626136725
486,hovd,48.0056,91.6419,64.27,42,9,2.93,MN,1626136726
487,smolenka,52.1352,113.4974,68.07,77,40,8.95,RU,1626136726
488,catabola,-12.15,17.2833,51.19,34,99,1.21,AO,1626136727
489,vermillion,42.7794,-96.9292,77.72,69,0,7.18,US,1626136727
490,tyup,42.7276,78.3648,59.36,72,60,2.24,KG,1626136728
491,marfino,55.7028,37.3822,71.1,75,0,4.47,RU,1626136728
492,fuzhou,26.0614,119.3061,87.69,61,100,3.11,CN,1626136665
493,nemuro,43.3236,145.575,66.63,89,99,7.81,JP,1626136728
494,selenginsk,52.0064,106.8647,57.61,69,91,4.07,RU,1626136729
495,manono,-7.3,27.4167,67.12,39,5,3.83,CD,1626136729
496,wanning,18.8003,110.3967,85.62,72,100,6.76,CN,1626136730
497,adrar,20.5022,-10.0711,90.05,30,84,5.48,MR,1626136730
498,luau,-10.7073,22.2247,55.71,51,7,3.58,AO,1626136731
499,souillac,-20.5167,57.5167,70.18,68,40,11.5,MU,1626136731
500,pangnirtung,66.1451,-65.7125,46.92,92,100,3.33,CA,1626136731
501,jiwani,25.05,61.7417,83.1,83,100,7.23,PK,1626136732
502,matara,5.9485,80.5353,78.84,87,100,13.13,LK,1626136732
503,khandyga,62.6667,135.6,71.1,44,7,1.3,RU,1626136733
504,gigmoto,13.7796,124.39,84.83,76,96,3.53,PH,1626136733
505,klaksvik,62.2266,-6.589,52.72,93,100,0.72,FO,1626136734
506,el banco,9.0011,-73.9758,82.27,69,5,1.05,CO,1626136734
507,ler,8.3018,30.1418,71.69,90,100,3.06,SS,1626136735
508,sinaloa,25.0,-107.5,90.05,60,100,5.08,MX,1626136735
